markers = [
  {
    "name": "dabaga",
    "lat": 17.30836833333333,
    "lng": 8.137765
  },
  {
    "name": "sabon_machi",
    "lat": 13.867008333333334,
    "lng": 6.980096666666666
  },
  {
    "name": "sabon_guida",
    "lat": 13.946526666666667,
    "lng": 5.902271666666667
  },
  {
    "name": "kore mairoua",
    "lat": 13.296609999999998,
    "lng": 3.90488
  },
  {
    "name": "tchintabaraden",
    "lat": 15.897373333333332,
    "lng": 5.805414999999999
  },
  {
    "name": "kao",
    "lat": 15.405106666666665,
    "lng": 5.726575
  },
  {
    "name": "gaffati",
    "lat": 13.831175,
    "lng": 9.10933
  },
  {
    "name": "dessa",
    "lat": 14.519071666666665,
    "lng": 1.1169616666666669
  },
  {
    "name": "zermo",
    "lat": 13.868326666666666,
    "lng": 9.317081666666667
  },
  {
    "name": "tabelot",
    "lat": 17.60030833333333,
    "lng": 8.940241666666667
  },
  {
    "name": "galma_koudawatche",
    "lat": 14.089051666666668,
    "lng": 5.800820000000001
  },
  {
    "name": "tibiri_doutchi",
    "lat": 13.120388333333334,
    "lng": 3.9939183333333337
  },
  {
    "name": "damagaram_takaya",
    "lat": 14.1392279,
    "lng": 9.4849065
  },
  {
    "name": "",
    "lat": 14.891576666666667,
    "lng": 5.2707016666666675
  },
  {
    "name": "tirmini",
    "lat": 13.770704999999998,
    "lng": 8.793418333333333
  },
  {
    "name": "tamaya",
    "lat": 15.814983333333332,
    "lng": 6.758035
  },
  {
    "name": "maradi_arrondissement_2",
    "lat": 13.505334999999999,
    "lng": 7.119249999999999
  },
  {
    "name": "obohamane",
    "lat": 14.792426666666666,
    "lng": 5.925131666666665
  },
  {
    "name": "dan_goulbi",
    "lat": 13.963913333333334,
    "lng": 6.554226666666667
  },
  {
    "name": "mazamni",
    "lat": 13.983686666666665,
    "lng": 9.4321
  },
  {
    "name": "kankandi",
    "lat": 12.875304999999999,
    "lng": 2.966268333333333
  },
  {
    "name": "dakoussa",
    "lat": 13.970121666666667,
    "lng": 9.034455000000001
  },
  {
    "name": "tabotaki",
    "lat": 14.616126666666666,
    "lng": 6.1572450000000005
  },
  {
    "name": "golle",
    "lat": 12.855478333333334,
    "lng": 3.0069799999999995
  },
  {
    "name": "maradi_arrondissement_3",
    "lat": 13.486836666666667,
    "lng": 7.103175000000001
  },
  {
    "name": "tahoua_arrondissement_1",
    "lat": 14.883816666666666,
    "lng": 5.272581666666667
  },
  {
    "name": "maradi_arrondissement_1",
    "lat": 13.506531666666667,
    "lng": 7.106826666666666
  },
  {
    "name": "tillaberi",
    "lat": 14.207506666666665,
    "lng": 1.449385
  },
  {
    "name": "azarori",
    "lat": 14.133706666666667,
    "lng": 5.906768333333334
  },
  {
    "name": "mirriah",
    "lat": 13.712885000000002,
    "lng": 9.160081666666667
  },
  {
    "name": "guidimouni",
    "lat": 13.693781666666666,
    "lng": 9.513209999999999
  },
  {
    "name": "dosso",
    "lat": "",
    "lng": ""
  },
  {
    "name": "timia",
    "lat": 18.11417,
    "lng": 8.780366666666668
  },
  {
    "name": "maiyara",
    "lat": 13.937896666666665,
    "lng": 7.215623333333334
  },
  {
    "name": "doumega",
    "lat": 12.970061666666668,
    "lng": 3.973171666666667
  },
  {
    "name": "guecheme",
    "lat": 12.903944999999998,
    "lng": 3.8724266666666667
  },
  {
    "name": "birni_lalle",
    "lat": 14.427209999999999,
    "lng": 6.763428333333334
  },
  {
    "name": "kanche",
    "lat": 13.528591666666667,
    "lng": 8.462885
  },
  {
    "name": "albarkaram",
    "lat": 13.9760197,
    "lng": 9.2798767
  },
  {
    "name": "moa",
    "lat": 14.164848333333335,
    "lng": 9.75646
  },
  {
    "name": "niamey_arrondissement_5",
    "lat": 13.490651666666668,
    "lng": 2.0989
  },
  {
    "name": "",
    "lat": 14.89269,
    "lng": 5.260094999999999
  },
  {
    "name": "affala",
    "lat": 15.116093333333334,
    "lng": 5.241441666666666
  },
  {
    "name": "gougaram",
    "lat": 18.453153333333333,
    "lng": 7.803356666666668
  },
  {
    "name": "garhanga",
    "lat": 14.619066666666667,
    "lng": 5.937638333333332
  },
  {
    "name": "inates",
    "lat": 14.734563333333332,
    "lng": 0.9147266666666667
  },
  {
    "name": "dakoro",
    "lat": 14.524685,
    "lng": 6.7722050000000005
  },
  {
    "name": "alakos",
    "lat": 14.479351666666666,
    "lng": 9.683485
  },
  {
    "name": "dogo_dogo",
    "lat": 12.899541666666668,
    "lng": 9.320138333333334
  },
  {
    "name": "dungass",
    "lat": 13.059733333333334,
    "lng": 9.335698333333333
  },
  {
    "name": "gouchi",
    "lat": 13.508843333333335,
    "lng": 9.54879
  },
  {
    "name": "malawa",
    "lat": 13.03263,
    "lng": 9.618686666666667
  },
  {
    "name": "wacha",
    "lat": 13.355271666666665,
    "lng": 9.297381666666666
  },
  {
    "name": "akoubounou",
    "lat": 15.360123333333336,
    "lng": 6.096869999999999
  },
  {
    "name": "abalak",
    "lat": 15.456273333333336,
    "lng": 6.275360000000001
  },
  {
    "name": "tabalak",
    "lat": 15.107996666666669,
    "lng": 5.666663333333334
  },
  {
    "name": "n_gonga",
    "lat": 13.175575,
    "lng": 2.8282883333333335
  },
  {
    "name": "fabidji",
    "lat": 12.91295,
    "lng": 2.8613416666666667
  },
  {
    "name": "birni_n_gaoure",
    "lat": 13.08608833333333,
    "lng": 2.8926466666666664
  },
  {
    "name": "dannet",
    "lat": 18.08065,
    "lng": 7.530545000000001
  },
  {
    "name": "iferouane",
    "lat": 19.0745,
    "lng": 8.420316666666668
  },
  {
    "name": "madaoua",
    "lat": 14.0748889,
    "lng": 5.9531089
  },
  {
    "name": "barmou",
    "lat": 15.094613333333333,
    "lng": 5.404918333333334
  },
  {
    "name": "sinder",
    "lat": 14.269835,
    "lng": 1.333575
  },
  {
    "name": "dantchandou",
    "lat": 13.415726666666668,
    "lng": 2.7584916666666666
  },
  {
    "name": "guidiguir",
    "lat": 13.676790000000002,
    "lng": 9.82611
  },
  {
    "name": "loga",
    "lat": "",
    "lng": ""
  },
  {
    "name": "anzourou",
    "lat": 14.508363333333334,
    "lng": 1.2264566666666668
  },
  {
    "name": "bibiyergou",
    "lat": 14.441748333333331,
    "lng": 1.2174866666666666
  },
  {
    "name": "sokorbe",
    "lat": "",
    "lng": ""
  },
  {
    "name": "guidan_sori",
    "lat": 13.54105,
    "lng": 6.882396666666667
  },
  {
    "name": "takanamat",
    "lat": 15.139955000000002,
    "lng": 4.787216666666667
  },
  {
    "name": "falwel",
    "lat": "",
    "lng": ""
  },
  {
    "name": "kirtachi",
    "lat": 12.804746666666665,
    "lng": 2.473405
  },
  {
    "name": "mokko",
    "lat": "",
    "lng": ""
  },
  {
    "name": "doungou",
    "lat": 13.416660000000002,
    "lng": 8.633196666666667
  },
  {
    "name": "dan_barto",
    "lat": 13.201688333333333,
    "lng": 8.325643333333334
  },
  {
    "name": "korgom",
    "lat": 13.435835,
    "lng": 8.231969999999999
  },
  {
    "name": "zabori",
    "lat": 12.704931666666669,
    "lng": 3.5585850000000003
  },
  {
    "name": "matamey",
    "lat": 13.42802,
    "lng": 8.470558333333335
  },
  {
    "name": "hamdara",
    "lat": 13.676036666666668,
    "lng": 9.470633333333334
  },
  {
    "name": "daouche",
    "lat": 13.420345000000001,
    "lng": 8.345835
  },
  {
    "name": "gangara_aguie",
    "lat": 13.427475,
    "lng": 7.840143333333333
  },
  {
    "name": "arlit",
    "lat": 18.73695,
    "lng": 7.381939999999999
  },
  {
    "name": "tesker",
    "lat": 15.113883333333336,
    "lng": 10.694948333333333
  },
  {
    "name": "babankatami",
    "lat": 14.529768333333333,
    "lng": 6.258218333333334
  },
  {
    "name": "karofane",
    "lat": 14.314216666666669,
    "lng": 6.158526666666668
  },
  {
    "name": "tagazar",
    "lat": "",
    "lng": ""
  },
  {
    "name": "say",
    "lat": 13.098496666666666,
    "lng": 2.355101666666666
  },
  {
    "name": "kiota",
    "lat": 13.297636666666666,
    "lng": 2.9573033333333334
  },
  {
    "name": "harikanassou",
    "lat": 13.257298333333331,
    "lng": 2.8374683333333333
  },
  {
    "name": "koygolo",
    "lat": 13.478543333333334,
    "lng": 3.0074433333333332
  },
  {
    "name": "bambeye",
    "lat": 14.717780000000001,
    "lng": 5.094575000000001
  },
  {
    "name": "tebaram",
    "lat": 14.831466666666666,
    "lng": 4.452093333333334
  },
  {
    "name": "bagaroua",
    "lat": 14.644651666666668,
    "lng": 4.347428333333334
  },
  {
    "name": "aderbissinat",
    "lat": 15.624275,
    "lng": 7.892499999999999
  },
  {
    "name": "dogo",
    "lat": 13.499785000000001,
    "lng": 9.012878333333333
  },
  {
    "name": "korahane",
    "lat": 14.56012,
    "lng": 6.568684999999999
  },
  {
    "name": "tagriss",
    "lat": 14.714085,
    "lng": 7.518906666666667
  },
  {
    "name": "bermo",
    "lat": 15.148023333333333,
    "lng": 6.816956666666666
  },
  {
    "name": "bader_goula",
    "lat": 14.661713333333333,
    "lng": 7.233211666666667
  },
  {
    "name": "torodi",
    "lat": "",
    "lng": ""
  },
  {
    "name": "tamou",
    "lat": 12.751261666666668,
    "lng": 2.1755583333333335
  },
  {
    "name": "kelle",
    "lat": 14.276083333333334,
    "lng": 10.1198
  },
  {
    "name": "gamou",
    "lat": 14.221026666666667,
    "lng": 9.97843
  },
  {
    "name": "sanam",
    "lat": 14.831880000000002,
    "lng": 3.907841666666667
  },
  {
    "name": "ingal",
    "lat": 16.791501666666665,
    "lng": 6.93377
  },
  {
    "name": "guidan_roumdji",
    "lat": 13.658264999999998,
    "lng": 6.6867350000000005
  },
  {
    "name": "tessa",
    "lat": 12.769625,
    "lng": 3.4020100000000006
  },
  {
    "name": "yelou",
    "lat": 12.793828333333332,
    "lng": 3.6398366666666666
  },
  {
    "name": "hawandawaki",
    "lat": 13.34274,
    "lng": 8.239816666666666
  },
  {
    "name": "baoudetta",
    "lat": 13.623918333333332,
    "lng": 8.103758333333333
  },
  {
    "name": "ourafane",
    "lat": 14.068116666666667,
    "lng": 8.132176666666668
  },
  {
    "name": "maijirgui",
    "lat": 13.738113333333335,
    "lng": 8.141106666666667
  },
  {
    "name": "tondikandia",
    "lat": "",
    "lng": ""
  },
  {
    "name": "makalondi",
    "lat": "",
    "lng": ""
  },
  {
    "name": "ouro_gueladjo",
    "lat": 13.093518333333334,
    "lng": 2.0078866666666664
  },
  {
    "name": "bitinkodji",
    "lat": 13.577055,
    "lng": 1.9585733333333333
  },
  {
    "name": "tarka",
    "lat": 14.685273333333335,
    "lng": 8.006793333333333
  },
  {
    "name": "chadakori",
    "lat": 13.669248333333334,
    "lng": 6.991771666666667
  },
  {
    "name": "kornaka",
    "lat": 14.091258333333334,
    "lng": 6.901006666666666
  },
  {
    "name": "gouna",
    "lat": 13.584956666666669,
    "lng": 9.123304999999998
  },
  {
    "name": "droum",
    "lat": 13.571864999999999,
    "lng": 8.895295
  },
  {
    "name": "dioundiou",
    "lat": 12.617875,
    "lng": 3.5446499999999994
  },
  {
    "name": "koona",
    "lat": 13.544488333333334,
    "lng": 8.047721666666666
  },
  {
    "name": "adjekoria",
    "lat": 14.335059999999999,
    "lng": 6.7890283333333326
  },
  {
    "name": "azagor",
    "lat": 14.642553333333334,
    "lng": 6.888258333333333
  },
  {
    "name": "roumbou_1",
    "lat": 14.701668333333336,
    "lng": 6.988663333333333
  },
  {
    "name": "gadabedji",
    "lat": 14.979540000000002,
    "lng": 7.154651666666666
  },
  {
    "name": "kolleram",
    "lat": 13.719743333333334,
    "lng": 9.08649
  },
  {
    "name": "ourno",
    "lat": 14.296936666666666,
    "lng": 6.439308333333334
  },
  {
    "name": "attantane",
    "lat": 14.043758333333335,
    "lng": 7.522188333333334
  },
  {
    "name": "tchake",
    "lat": 14.150368333333331,
    "lng": 7.603761666666666
  },
  {
    "name": "tchirozerine",
    "lat": 17.268388333333334,
    "lng": 7.825691666666668
  },
  {
    "name": "sarkin_haoussa",
    "lat": 13.843723333333333,
    "lng": 7.587871666666667
  },
  {
    "name": "mehana",
    "lat": 14.392461666666668,
    "lng": 1.1249116666666665
  },
  {
    "name": "ayerou",
    "lat": 14.736745,
    "lng": 0.9373400000000001
  },
  {
    "name": "kokorou",
    "lat": 14.207248333333332,
    "lng": 0.9262466666666668
  },
  {
    "name": "diagourou",
    "lat": 13.906928333333333,
    "lng": 0.8112183333333333
  },
  {
    "name": "kollo",
    "lat": 13.33638,
    "lng": 2.31825
  },
  {
    "name": "zinder_arrondissement_5",
    "lat": 13.710231666666667,
    "lng": 9.023824999999999
  },
  {
    "name": "kourfeye_centre",
    "lat": 14.240641666666667,
    "lng": 3.4462333333333333
  },
  {
    "name": "gorouol",
    "lat": 14.652271666666666,
    "lng": 0.5337516666666667
  },
  {
    "name": "tessaoua",
    "lat": 13.754953333333333,
    "lng": 7.993815000000001
  },
  {
    "name": "bankilare",
    "lat": 14.575398333333332,
    "lng": 0.7275283333333333
  },
  {
    "name": "youri",
    "lat": 13.330771666666665,
    "lng": 2.247313333333333
  },
  {
    "name": "namaro",
    "lat": 13.697843333333333,
    "lng": 1.7027933333333332
  },
  {
    "name": "dantchiao",
    "lat": 12.879526666666667,
    "lng": 9.093718333333333
  },
  {
    "name": "bande",
    "lat": 13.177593333333334,
    "lng": 8.885446666666667
  },
  {
    "name": "yekoua",
    "lat": 13.03995,
    "lng": 8.675626666666666
  },
  {
    "name": "kwaya",
    "lat": 13.193226666666666,
    "lng": 8.648335
  },
  {
    "name": "sassoumbroum",
    "lat": 13.120095,
    "lng": 8.488538333333334
  },
  {
    "name": "kourni",
    "lat": 13.222578333333335,
    "lng": 8.456996666666667
  },
  {
    "name": "tsaouni",
    "lat": 13.340576666666667,
    "lng": 8.444926666666667
  },
  {
    "name": "gangara_tanout",
    "lat": 14.616211666666667,
    "lng": 8.506939999999998
  },
  {
    "name": "tenhya",
    "lat": 14.974563333333332,
    "lng": 8.882698333333334
  },
  {
    "name": "ollelewa",
    "lat": 14.501214999999998,
    "lng": 8.637535000000002
  },
  {
    "name": "falenko",
    "lat": 14.258675000000002,
    "lng": 8.537978333333333
  },
  {
    "name": "gazaoua",
    "lat": 13.529948333333333,
    "lng": 7.918453333333334
  },
  {
    "name": "tibiri_maradi",
    "lat": 13.566911666666666,
    "lng": 7.069898333333333
  },
  {
    "name": "agadez",
    "lat": 16.985718333333335,
    "lng": 7.989783333333333
  },
  {
    "name": "n%uFFFDdounga",
    "lat": 13.350128333333336,
    "lng": 2.2501466666666667
  },
  {
    "name": "magaria",
    "lat": 12.994145,
    "lng": 8.911914999999999
  },
  {
    "name": "yaouri",
    "lat": 13.260201666666667,
    "lng": 8.566068333333334
  },
  {
    "name": "ichirnawa",
    "lat": 13.497378333333332,
    "lng": 8.551393333333333
  },
  {
    "name": "sakoira",
    "lat": 14.28833,
    "lng": 1.4012733333333334
  },
  {
    "name": "aguie",
    "lat": 13.504966666666666,
    "lng": 7.78369
  },
  {
    "name": "djiratawa",
    "lat": 13.42032,
    "lng": 7.163711666666668
  },
  {
    "name": "dan_issa",
    "lat": 13.224225,
    "lng": 7.259545000000001
  },
  {
    "name": "dirkou",
    "lat": 18.994359999999997,
    "lng": 12.893211666666666
  },
  {
    "name": "djado",
    "lat": 20.95798333333333,
    "lng": 12.340173333333333
  },
  {
    "name": "bana",
    "lat": 12.050853333333334,
    "lng": 3.5509133333333334
  },
  {
    "name": "abala",
    "lat": 14.934493333333334,
    "lng": 3.4361716666666666
  },
  {
    "name": "filingue",
    "lat": 14.348846666666669,
    "lng": 3.3262416666666668
  },
  {
    "name": "libore",
    "lat": 13.427573333333331,
    "lng": 2.17134
  },
  {
    "name": "banibangou",
    "lat": 15.045515,
    "lng": 2.69993
  },
  {
    "name": "wame",
    "lat": "",
    "lng": ""
  },
  {
    "name": "tanout",
    "lat": 14.978485000000001,
    "lng": 8.895506666666668
  },
  {
    "name": "malbaza",
    "lat": 13.964730000000001,
    "lng": 5.505928333333332
  },
  {
    "name": "tajae",
    "lat": 14.226936666666665,
    "lng": 5.300806666666667
  },
  {
    "name": "badaguichiri",
    "lat": 14.515625,
    "lng": 5.367965
  },
  {
    "name": "tsernaoua",
    "lat": 13.899456666666667,
    "lng": 5.347966666666667
  },
  {
    "name": "bazaga",
    "lat": 13.786428333333333,
    "lng": 5.101751666666667
  },
  {
    "name": "karma",
    "lat": 13.682301666666667,
    "lng": 1.8171049999999997
  },
  {
    "name": "gotheye",
    "lat": 13.1405876,
    "lng": 2.3367493
  },
  {
    "name": "gabi",
    "lat": 13.238045,
    "lng": 7.04415
  },
  {
    "name": "bilmat",
    "lat": 18.68891,
    "lng": 12.923891666666668
  },
  {
    "name": "fachi",
    "lat": 18.11261,
    "lng": 11.582606666666667
  },
  {
    "name": "tounouga",
    "lat": 11.796261666666664,
    "lng": 3.6174033333333333
  },
  {
    "name": "gaya",
    "lat": 11.886928333333334,
    "lng": 3.4557883333333335
  },
  {
    "name": "tondikiwindi",
    "lat": 14.458163333333335,
    "lng": 2.030955
  },
  {
    "name": "safo",
    "lat": 13.408228333333334,
    "lng": 7.11456
  },
  {
    "name": "kalfou",
    "lat": 14.869866666666667,
    "lng": 5.518721666666666
  },
  {
    "name": "allela",
    "lat": 13.915294999999999,
    "lng": 4.823283333333333
  },
  {
    "name": "mayahi",
    "lat": 13.944065,
    "lng": 7.669335000000001
  },
  {
    "name": "kanan_bakache",
    "lat": 13.869156666666667,
    "lng": 7.8264483333333335
  },
  {
    "name": "farey",
    "lat": 12.526964999999999,
    "lng": 3.318083333333333
  },
  {
    "name": "sae_saboua",
    "lat": 13.572081666666667,
    "lng": 7.3626966666666664
  },
  {
    "name": "",
    "lat": 13.491974999999998,
    "lng": 7.1065
  },
  {
    "name": "el_allassane_maireyrey",
    "lat": 14.133466666666667,
    "lng": 7.788756666666666
  },
  {
    "name": "guidan_amoumoune",
    "lat": 14.260108333333335,
    "lng": 7.386808333333333
  },
  {
    "name": "zinder_arrondissement_2",
    "lat": 13.822363333333332,
    "lng": 8.99517
  },
  {
    "name": "garagoumsa",
    "lat": 13.680743333333332,
    "lng": 8.536158333333333
  },
  {
    "name": "dargol",
    "lat": 13.91542,
    "lng": 1.23517
  },
  {
    "name": "zinder_arrondissement_3",
    "lat": 13.823531666666668,
    "lng": 8.981205
  },
  {
    "name": "keita",
    "lat": 14.75632,
    "lng": 5.7663383333333345
  },
  {
    "name": "doguerawa",
    "lat": 13.962,
    "lng": 5.5851733333333335
  },
  {
    "name": "kourteye",
    "lat": 13.852775000000001,
    "lng": 1.6117166666666667
  },
  {
    "name": "guiladje",
    "lat": 12.620186666666665,
    "lng": 2.905356666666667
  },
  {
    "name": "sambera",
    "lat": 12.405625000000002,
    "lng": 3.0536249999999994
  },
  {
    "name": "fakara",
    "lat": 13.161116666666665,
    "lng": 2.52176
  },
  {
    "name": "imanan",
    "lat": 14.008933333333335,
    "lng": 3.2133933333333338
  },
  {
    "name": "garankedey",
    "lat": 13.281226666666665,
    "lng": 3.1040983333333334
  },
  {
    "name": "tombokoirey_1",
    "lat": 13.042819999999999,
    "lng": 3.2094783333333328
  },
  {
    "name": "tombokoirey_2",
    "lat": 13.043559999999998,
    "lng": 3.2128233333333336
  },
  {
    "name": "goroubankassam",
    "lat": 13.010851666666667,
    "lng": 3.1976066666666667
  },
  {
    "name": "dogonkiria",
    "lat": 14.05459,
    "lng": 4.354415
  },
  {
    "name": "falmey",
    "lat": 12.603573333333335,
    "lng": 2.8544366666666665
  },
  {
    "name": "dan_kassari",
    "lat": 13.723633333333332,
    "lng": 4.389431666666667
  },
  {
    "name": "tera",
    "lat": 14.005321666666669,
    "lng": 0.750845
  },
  {
    "name": "ouallam",
    "lat": 14.313636666666666,
    "lng": 2.08744
  },
  {
    "name": "",
    "lat": 12.954188333333331,
    "lng": 3.507648333333334
  },
  {
    "name": "kieche",
    "lat": 13.480514999999999,
    "lng": 4.00399
  },
  {
    "name": "dogondoutchi",
    "lat": 13.639473333333335,
    "lng": 4.033666666666666
  },
  {
    "name": "matankari",
    "lat": 13.770540000000002,
    "lng": 4.005878333333333
  },
  {
    "name": "zinder_arrondissement_4",
    "lat": 13.810363333333331,
    "lng": 8.975453333333332
  },
  {
    "name": "koure",
    "lat": 13.312923333333334,
    "lng": 2.578971666666667
  },
  {
    "name": "illela",
    "lat": 14.457413333333333,
    "lng": 5.253010000000001
  },
  {
    "name": "zinder_arrondissement_1",
    "lat": 13.800049999999999,
    "lng": 9.003981666666666
  },
  {
    "name": "n_gourti",
    "lat": 15.331375,
    "lng": 13.197631666666666
  },
  {
    "name": "n_guigmi",
    "lat": 14.257993333333332,
    "lng": 13.112578333333333
  },
  {
    "name": "kablewa",
    "lat": 13.977265,
    "lng": 12.974163333333335
  },
  {
    "name": "chetimari",
    "lat": 13.185811666666666,
    "lng": 12.421228333333334
  },
  {
    "name": "gueskerou",
    "lat": "",
    "lng": ""
  },
  {
    "name": "foulatari",
    "lat": 13.548815000000001,
    "lng": 12.057666666666668
  },
  {
    "name": "n_guelbely",
    "lat": 13.857688333333332,
    "lng": 11.865038333333333
  },
  {
    "name": "boune",
    "lat": 13.520266666666664,
    "lng": 10.141539999999999
  },
  {
    "name": "goure",
    "lat": 13.988394999999999,
    "lng": 10.270346666666667
  },
  {
    "name": "tillia",
    "lat": "",
    "lng": ""
  },
  {
    "name": "tassara",
    "lat": "",
    "lng": ""
  },
  {
    "name": "tama",
    "lat": 14.267296666666669,
    "lng": 5.768833333333333
  },
  {
    "name": "deoule",
    "lat": 14.431646666666666,
    "lng": 6.035238333333333
  },
  {
    "name": "sarkin_yamma",
    "lat": 13.4219,
    "lng": 6.981691666666667
  },
  {
    "name": "madarounfa",
    "lat": 13.296006666666665,
    "lng": 7.164158333333334
  },
  {
    "name": "bangui",
    "lat": 13.683648333333334,
    "lng": 6.194356666666666
  },
  {
    "name": "birni_n_konni",
    "lat": 13.799901666666665,
    "lng": 5.246998333333333
  },
  {
    "name": "tamaske",
    "lat": 14.756253333333332,
    "lng": 5.766396666666666
  },
  {
    "name": "tchadoua",
    "lat": 13.550271666666667,
    "lng": 7.458606666666666
  },
  {
    "name": "soukoukoutane",
    "lat": 14.187129999999998,
    "lng": 3.8926799999999995
  },
  {
    "name": "niamey_arrondissement_3",
    "lat": 13.505018333333332,
    "lng": 2.1341483333333335
  },
  {
    "name": "simiri",
    "lat": 14.135895000000001,
    "lng": 2.132166666666667
  },
  {
    "name": "issawane",
    "lat": 14.005761666666668,
    "lng": 7.918030000000001
  },
  {
    "name": "niamey_arrondissement_4",
    "lat": 13.494661666666666,
    "lng": 2.138676666666667
  },
  {
    "name": "zinder_arrondissement_5",
    "lat": 13.80495,
    "lng": 8.98691
  },
  {
    "name": "tanda",
    "lat": 11.983418333333335,
    "lng": 3.3209233333333334
  },
  {
    "name": "dingazi",
    "lat": 14.184685000000002,
    "lng": 2.552086666666667
  },
  {
    "name": "hamdalleye",
    "lat": 13.559641666666668,
    "lng": 2.4037283333333335
  },
  {
    "name": "niamey_arrondissement_1",
    "lat": 13.534571666666666,
    "lng": 2.089561666666667
  },
  {
    "name": "diffa",
    "lat": 13.316069999999998,
    "lng": 12.612411666666667
  },
  {
    "name": "maine_soroa",
    "lat": 13.21949,
    "lng": 12.023208333333333
  },
  {
    "name": "toumour",
    "lat": "",
    "lng": ""
  },
  {
    "name": "bosso",
    "lat": "",
    "lng": ""
  },
  {
    "name": "goudoumaria",
    "lat": 13.709855000000001,
    "lng": 11.183576666666665
  },
  {
    "name": "azeye",
    "lat": 15.456323333333334,
    "lng": 6.275346666666667
  },
  {
    "name": "allakeye",
    "lat": 14.404555,
    "lng": 5.746748333333333
  },
  {
    "name": "bengou",
    "lat": "",
    "lng": ""
  },
  {
    "name": "karakara",
    "lat": "",
    "lng": ""
  },
  {
    "name": "",
    "lat": 13.513371666666668,
    "lng": 2.1086416666666663
  },
  {
    "name": "bouza",
    "lat": "",
    "lng": ""
  }
]